,주소,위도,경도,전화번호,재학생 수,남학생 수,여학생 수,홈페이지,계열
광탄고등학교,경기도 파주시 광탄면 혜음로1128번길 16,37.7834372345562,126.848918975742,031-956-0000,278명,166명,112명,http://www.gtan.hs.kr,상업계  | 일반계 
화성반월고등학교,경기도 화성시 효행로 1281-66,37.2247941818117,127.055094283781,031-8019-2520,871명,430명,441명,http://www.hsbanwol.hs.kr,일반계 
고촌고등학교,경기도 김포시 고촌읍 태리로47번길 20,37.6046055120949,126.74996142559,031-8048-5100,970명,534명,436명,http://gochon.hs.kr/,일반계 
계원예술중학교,경기도 성남시 분당구 불정로 100,37.3583619161056,127.115506089721,031-786-5900,419명,62명,357명,http://kaywon.goesn.kr/,예술계 
삼괴고등학교,경기도 화성시 우정읍 장안로 35,37.0898206373606,126.822292420559,031-831-0600,621명,311명,310명,http://www.samgoe.hs.kr,상업계  | 일반계 
낙생고등학교,경기도 성남시 분당구 대왕판교로 477,37.3861046866025,127.100374788286,031-780-6314,791명,459명,332명,https://naksaeng-h.goesn.kr,일반계 
수원하이텍고등학교,경기도 수원시 영통구 청명북로 56(영통동),37.2562938852089,127.081292466588,031-201-9000,443명,346명,97명,https://sht-h.goesw.kr,공업계  | 특성화 
용호고등학교,경기도 군포시 용호2로 10,37.3418258048346,126.939334827718,031-390-4464,1081명,569명,512명,http://www.yongho.hs.kr,일반계 
수원외국어고등학교,경기도 수원시 영통구 창룡대로 263,37.2959932620852,127.035115819124,031-258-9341,611명,123명,488명,http://www.sawl.hs.kr,외국어계 
의정부여자고등학교,경기도 의정부시 신흥로365번길 10,37.7500360473296,127.041150234253,031-876-4201,676명,0명,676명,http://www.ugh.hs.kr,일반계 
한봄고등학교,경기도 수원시 권선구 호매실로 46-93,37.2594590398051,126.969345263636,031-293-3090,705명,251명,454명,http://www.hanbom.hs.kr,공업계 
동두천중앙고등학교,경기도 동두천시 평화로 2280,37.8916510420522,127.058102442745,031-860-1200,435명,258명,177명,http://ddcja-h.goedy.kr,공업계  | 일반계 
부명고등학교,경기도 부천시 석천로 127,37.4991225432904,126.761267164547,032-324-0163,692명,370명,322명,http://www.bmh.hs.kr,일반계 
판곡고등학교,경기도 남양주시 늘을1로 127,37.6628762741531,127.243047035973,031-594-7161,952명,456명,496명,http://www.pangok.hs.kr,일반계 
경기창조고등학교,경기도 안성시 공도읍 공도5로 37,37.0019397285891,127.1723585569,031-646-2200,892명,364명,528명,http://ggcj.hs.kr,일반계 
금곡고등학교,경기도 남양주시 경춘로992번길 10,37.6330915887098,127.212948673507,031-592-7081,810명,509명,301명,http://www.kumgok.hs.kr,가사계  | 상업계  | 일반계 
한겨레고등학교,경기도 안성시 죽산면 칠장로 107-9,37.0306410077506,127.42268960231,031-8046-0118,74명,36명,38명,http://www.han.hs.kr,일반계 
평촌공업고등학교,경기도 안양시 동안구 갈산로 16,37.3736039804229,126.962614203251,031-390-4884,378명,334명,44명,http://www.pct.hs.kr,공업계 
고색고등학교,경기도 수원시 권선구 서둔로17번길 32,37.2538522471805,126.982346593413,031-8012-6887,721명,721명,0명,http://gosaek-h.goesw.kr,일반계 
신일비즈니스고등학교,경기도 고양시 일산서구 킨텍스로 452,37.682855203799,126.762267820731,031-929-2106,460명,253명,207명,http://www.i-shinil.or.kr,상업계 
장안고등학교,경기도 수원시 장안구 대평로52번길 12,37.2931253532818,126.995933745241,031-269-8575,790명,442명,348명,http://www.jangan.hs.kr,일반계 
율곡고등학교,경기도 파주시 법원읍 사임당로 905,37.8479916799647,126.881304298938,031-958-0832,382명,253명,129명,http://yulgok.hs.kr,일반계 
한국선진학교,경기도 안산시 상록구 이호로 113,37.2871317266419,126.869131706554,031-409-1224,197명,0명,0명,http://seonjin.sc.kr/,일반계 
진건고등학교,경기도 남양주시 진건읍 진건오남로 369-1,37.6745275351785,127.197781390823,031-570-3060,1008명,539명,469명,http://www.jingeon.hs.kr,일반계 
효성고등학교,경기도 성남시 수정구 심곡로 16,37.4502210998583,127.104074828162,031-723-6240,563명,292명,271명,https://hyosung-h.goesn.kr,일반계 
수원고등학교,경기도 수원시 팔달구 정조로 666-10,37.2671336518696,127.017414678289,031-300-3220,929명,929명,0명,http://suwon-h.goesw.kr,일반계 
경기북과학고등학교,경기도 의정부시 체육로135번길 32,37.7588519687848,127.019659712323,031-870-2706,266명,211명,55명,http://gbs.hs.kr,과학계 
여주고등학교,경기도 여주시 세종로 254-58,37.2719100528925,127.632684809815,031-883-5111,462명,243명,219명,http://yeoju-h.goeyj.kr,일반계 
경은학교,경기도 남양주시 별내면 송산로 679,37.6994989137381,127.123500632058,031-575-3668,203명,0명,0명,http://ge-s.sc.kr/,일반계 
수주고등학교,경기도 부천시 역곡로 531,37.5324198011956,126.815191988429,0326772321,510명,263명,247명,http://www.suju.hs.kr,일반계 
능곡고등학교,경기도 고양시 덕양구 지도로 76,37.6239611550745,126.825501719987,031-972-1939,776명,425명,351명,http://nunggok.hs.kr,일반계 
구리여자고등학교,경기도 구리시 벌말로 168,37.5915219906067,127.152003739041,031-563-7202,587명,0명,587명,http://kuri-gh.hs.kr,일반계 
대부고등학교,경기도 안산시 단원구 대부중앙로 3,37.2477622725709,126.579061819864,032-886-4272,65명,39명,26명,http://daebu.hs.kr,상업계  | 일반계 
운정고등학교,경기도 파주시 와석순환로 267,37.7220442530715,126.736319937058,031-9507-334,1147명,497명,650명,http://www.unjeong.hs.kr,일반계 
점동고등학교,경기도 여주시 점동면 청안로 152,37.2059364183246,127.663264416864,031-884-1478,169명,78명,91명,https://jeomdong-h.goeyj.kr,상업계  | 일반계 
수원농생명과학고등학교,경기도 수원시 장안구 광교산로 13,37.2951535923333,127.019450200714,031-259-4300,718명,398명,320명,http://sunong-h.goesw.kr,농업계 
성일고등학교,경기도 성남시 중원구 시민로77번길 10,37.4348858854339,127.145576726447,031-750-1800,732명,732명,0명,https://sungil-h.goesn.kr/sungil-h/main.do,일반계 
경기도중산고등학교,경기도 고양시 일산동구 중산로 290,37.6969484687399,126.782593072353,031-910-6500,870명,461명,409명,http://www.ijungsan.hs.kr,일반계 
경기폴리텍고등학교,경기도 군포시 고산로 524,37.3601904085564,126.924350424031,031-390-4514,185명,130명,55명,http://www.g-polytech.hs.kr,공업계 
별가람고등학교,경기도 남양주시 순화궁로 393,37.6614764118779,127.122174166835,031-523-7411,697명,421명,276명,http://www.byeolgaram.hs.kr,일반계 
경기도홍익디자인고등학교,경기도 화성시 효행로 387,37.2167923978717,126.979629854484,031-8055-3004,310명,95명,215명,http://www.hih.hs.kr,공업계  | 일반계 
일산국제컨벤션고등학교,경기도 고양시 일산서구 고봉로 133,37.6728845608928,126.771577999063,031-912-8033,626명,327명,299명,http://www.ilsan.hs.kr,상업계 
경일관광경영고등학교,경기도 안산시 단원구 석수로 131,37.3479491508622,126.804970582527,031-3631-400,730명,315명,415명,http://kyongil.hs.kr,공업계  | 농업계  | 상업계  | 일반계 
솔터고등학교,경기도 김포시 김포한강7로22번길 109,37.641773422272,126.636375304709,031-996-9644,988명,466명,522명,http://www.solteo.hs.kr,일반계 
경기게임마이스터고등학교,경기도 안양시 동안구 학의로 70,37.3979108099943,126.947468252173,031-428-5402,214명,184명,30명,http://www.ggm.hs.kr,공업계  | 상업계 
여주자영농업고등학교,경기도 여주시 능서면 농도원1길 78-1,37.2957522369319,127.620448045576,031-883-2843,416명,238명,178명,https://farms-h.goeyj.kr,농업계 
진위고등학교,경기도 평택시 진위면 진위서로 47,37.1099147078622,127.069429733264,031-646-0200,440명,280명,160명,http://jinwee-h.goept.kr,상업계  | 일반계 
새얼학교,경기도 파주시 법원읍 술이홀로1333번길 69-1,37.8823624300632,126.874837162404,031-958-7003,155명,0명,0명,http://www.saeul.sc.kr,일반계 
향일고등학교,경기도 화성시 향남읍 행정중앙2로 28 향일고등학교,37.1292862419888,126.917896594531,031-8077-8600,765명,386명,379명,http://www.hyangil.hs.kr,일반계 
안곡고등학교,경기도 고양시 일산동구 하늘마을로 75,37.6820902505648,126.787208351706,031-929-2805,919명,482명,437명,http://www.angok.hs.kr,일반계 
전곡고등학교,경기도 연천군 전곡읍 전은길 9-89,38.0352131698114,127.069200920192,031-832-2089,596명,313명,283명,http://www.jeongok.hs.kr,공업계  | 일반계 
초지고등학교,경기도 안산시 단원구 광덕1로 13,37.3100780363969,126.81126445275,031-412-8492,699명,362명,337명,http://www.choji.hs.kr,일반계 
분당고등학교,경기도 성남시 분당구 내정로165번길 31,37.3756329527432,127.116067726699,031-710-7700,798명,438명,360명,https://bundang-h.goesn.kr/,일반계 
진접고등학교,경기도 남양주시 진접읍 해밀예당2로 13,37.7158456602535,127.190195849382,031-570-0105,1062명,564명,498명,http://jinjeop.hs.kr,일반계 
하늘꿈중고등학교,경기도 성남시 수정구 성남대로1518번길 11,37.4656846856642,127.127720944962,031-758-2071,33명,14명,19명,http://www.hdschool.org,일반계 
성호고등학교,경기도 오산시 동부대로436번길 46,37.1391425639847,127.081627275975,031-371-7114,883명,495명,388명,http://www.sungho.hs.kr,일반계 
부용고등학교,경기도 의정부시 오목로 96,37.7363423638968,127.092881470303,031-820-8500,754명,357명,397명,http://www.buyong.hs.kr,일반계 
호원고등학교부설방송통신고등학교,경기도 의정부시 망월로 56,37.7056118023599,127.044534276874,031-822-2124,411명,147명,264명,http://,일반계 
덕현고등학교,경기도 양주시 고읍북로 36,37.7982352004521,127.084919974227,031-850-2600,1003명,453명,550명,https://deokhyeon-h.goedy.kr,일반계 
경기도오산고등학교,경기도 오산시 청학로 43,37.1543059093432,127.062605619139,031-375-2134,870명,467명,403명,http://www.o-san.hs.kr,일반계 
백송고등학교,경기도 고양시 일산서구 덕이로 172번길 4-39,37.6973530372169,126.741611483859,031-929-0600,359명,189명,170명,http://www.baeksong.hs.kr,상업계  | 일반계 
문산수억고등학교,경기도 파주시 파주읍 우계로 357,37.8520270348651,126.802564852558,031-952-2666,669명,357명,312명,http://www.munsan-gco.hs.kr,상업계  | 일반계 
일산동고등학교,경기도 고양시 일산서구 탄현로 100,37.7006518987107,126.768659800439,031-915-0522,873명,469명,404명,http://www.ilsandong.hs.kr,일반계 
광교고등학교,경기도 수원시 영통구 도청로89번길 11,37.2896957506378,127.048784157097,031-8061-8295,800명,392명,408명,https://gwanggyo-h.goesw.kr,일반계 
포천고등학교,경기도 포천시 원모루로 40,37.891426161267,127.19234647891,031-535-1601,578명,286명,292명,http://www.pocheon.hs.kr,일반계 
명혜학교,경기도 안산시 상록구 해안로 865,37.2838664676922,126.83949271589,031-406-1137,91명,0명,0명,http://www.myhe.sc.kr,일반계 
현암고등학교,경기도 용인시 수지구 디지털벨리로 17,37.328800261035,127.131357671492,031-896-5035,571명,300명,271명,http://www.hyunam.hs.kr,일반계 
한솔고등학교,경기도 성남시 분당구 내정로 70,37.366776155373,127.11568843387,031-714-4381,765명,428명,337명,http://www.hansol.hs.kr,일반계 
경화여자고등학교,경기도 광주시 수하길11번길 43,37.4182430716596,127.263991443365,031-7990-500,919명,0명,919명,http://kyunghwa.hs.kr,상업계  | 일반계 
동일공업고등학교,경기도 평택시 중앙로 315,36.9923258144998,127.117983320546,031-653-6335,805명,647명,158명,http://di.hs.kr,공업계 
태장고등학교,경기도 수원시 영통구 영통로 250,37.2493693814771,127.059428552295,031-201-4114,954명,460명,494명,http://www.taejang.hs.kr,일반계 
보평고등학교,경기도 성남시 분당구 동판교로 124,37.3941947850269,127.117584651499,031-8017-0462,627명,357명,270명,http://bopyung-h.goesn.kr,일반계 
고림고등학교,경기도 용인시 처인구 고림로165번길,37.2471774682798,127.219550396806,031-525-0500,1020명,469명,551명,http://gorim.hs.kr,일반계 
일산고등학교,경기도 고양시 일산서구 원일로 53,37.6889712153294,126.768338388746,031-975-2487,638명,278명,360명,http://www.ilsanth.hs.kr,공업계 
소사고등학교,경기도 부천시 소사로78번길 22,37.4649662303353,126.80018546478,032-720-7004,657명,345명,312명,http://www.sosa.hs.kr,일반계 
양서고등학교,경기도 양평군 양서면 상촌길 31-12,37.5480676574525,127.327956379653,031-770-1400,656명,292명,364명,http://www.yangseo.hs.kr,상업계  | 일반계 
고양국제고등학교,경기도 고양시 일산동구 위시티4로 112,37.6845873682888,126.808645324163,031-839-5000,598명,162명,436명,http://www.ggg.hs.kr/,국제계  | 일반계 
동백고등학교,경기도 용인시 기흥구 동백7로 61,37.2833507515886,127.158472706367,031-303-4100,912명,483명,429명,http://dongbaek.hs.kr/,일반계 
용인한국외국어대학교부설고등학교,경기도 용인시 처인구 모현읍 외대로54번길 50,37.3304582207495,127.256703908766,031-332-0700,1113명,398명,715명,http://www.hafs.hs.kr,외국어계  | 일반계 
신성고등학교,경기도 안양시 만안구 소곡로 93,37.3841550395111,126.918601319576,031-469-1414,895명,874명,21명,http://www.shinsung.hs.kr,일반계 
이천고등학교,경기도 이천시 아리역로16번길 1,37.2879519493403,127.447608699772,031-645-0800,772명,772명,0명,http://icheon.hs.kr,일반계 
고양고등학교,경기도 고양시 덕양구 삼송로 171,37.6542399021367,126.890868597086,02-350-5700,503명,267명,236명,http://www.koyang.hs.kr,공업계  | 농업계  | 일반계 
이산고등학교,경기도 화성시 동탄기흥로353번길 61,37.1909923126408,127.087253366416,031-887-0009,1195명,620명,575명,http://www.esan.hs.kr,일반계 
광명북고등학교,경기도 광명시 시청로 127,37.4879266389187,126.8679386066,02-2615-9528,885명,465명,420명,http://www.gmbh.kr/,일반계 
신길고등학교,경기도 안산시 단원구 신길로 45,37.3344313627502,126.787591048095,031-599-9896,746명,387명,359명,http://singil.hs.kr,일반계 
영복여자고등학교,경기도 수원시 팔달구 장안로7번길 49-1,37.285624808092,127.001672124277,031-245-2512,814명,0명,814명,http://www.youngbok.or.kr,일반계 
양동고등학교,경기도 양평군 양동면 학둔지윗길 47-7,37.4216834802133,127.755652002015,031-773-1032,209명,92명,117명,http://www.yangdong.hs.kr,가사실업계  | 상업계  | 일반계 
신갈고등학교,경기도 용인시 기흥구 백남준로 13,37.2697590621774,127.111306511912,031-281-7004,897명,464명,433명,http://www.shingal.hs.kr,일반계 
안법고등학교,경기도 안성시 명륜길 66,37.0133355596553,127.273268016196,031-674-3413,674명,311명,363명,http://www.anbeop.hs.kr,일반계 
평촌고등학교,경기도 안양시 동안구 동안로 80,37.3865366004355,126.954726603004,031-383-4824,1061명,554명,507명,http://www.pyeongchon.hs.kr,일반계 
숭신여자고등학교,경기도 성남시 중원구 황송로77번길 34,37.4501532664395,127.170592779846,031-732-8101,599명,0명,599명,https://ssgh-h.goesn.kr/ssgh-h/main.do,일반계 
경기도광남고등학교,경기도 광주시 회안대로 350-32,37.3846420912183,127.237882964691,031-761-8800,880명,430명,450명,http://www.gwangnam-h.hs.kr,일반계 
송양고등학교,경기도 의정부시 송양로 6,37.7531098805096,127.106564888228,031-951-8800,873명,417명,456명,http://songyang.hs.kr,일반계 
운산고등학교,경기도 광명시 한내일로 17,37.454313921785,126.883350125082,02-2610-3010,754명,378명,376명,http://www.woonsan.hs.kr,일반계 
율천고등학교,경기도 수원시 팔달구 일월로 50,37.2878291286377,126.978878045673,031-299-3984,414명,235명,179명,http://www.yulcheon.hs.kr,일반계 
옥빛고등학교,경기도 양주시 옥정로4길 12,37.8145508462068,127.091767939241,031-894-1800,487명,250명,237명,https://okbit-h.goedy.kr,일반계 
두원공업고등학교,경기도 안성시 미양면 미양로 727,36.9967063015461,127.241799906306,031-677-2121,581명,399명,182명,http://www.doowon.hs.kr,공업계 
병점고등학교,경기도 화성시 병점중앙로 72,37.2058545420654,127.043715896984,031-228-1808,1014명,480명,534명,http://www.byeongjeom.hs.kr,일반계 
풍덕고등학교,경기도 용인시 수지구 정평로13번길 5,37.3170523812221,127.089252754581,031-218-0500,1302명,670명,632명,http://pungduck.hs.kr,일반계 
안산고등학교,경기도 안산시 상록구 청룡4길 8,37.3605043365738,126.87361408404,031-482-6575,778명,392명,386명,http://www.ansan.hs.kr,일반계 
역곡고등학교,경기도 부천시 안곡로 322,37.491725782372,126.809608936086,032-340-6102,461명,250명,211명,http://www.yeokgok.hs.kr,일반계 
화홍고등학교,경기도 수원시 권선구 세권로 331,37.2516730181132,127.040060441118,031-220-3308,890명,422명,468명,http://www.hwahong.hs.kr,일반계 
백영고등학교,경기도 안양시 동안구 관평로 94,37.3864580007221,126.964988941883,031-386-0510,910명,472명,438명,http://www.baekyoung.hs.kr,일반계 
중원고등학교,경기도 부천시 도약로 111,37.5115667909741,126.762225589181,032-320-5994,687명,367명,320명,http://www.jungwon.hs.kr,일반계 
경안고등학교,경기도 안산시 단원구 당곡로 93,37.325190934122,126.834927209555,031-483-1833,961명,474명,487명,http://kyungan.hs.kr,일반계 
안성고등학교,경기도 안성시 금산길 57,37.0140416923352,127.271361910374,031-670-0300,642명,642명,0명,http://www.ansong.hs.kr,일반계 
안양문화고등학교,경기도 안양시 만안구 양화로37번길 36,37.3957610400926,126.9086344228,031-470-4100,439명,0명,439명,https://anyangculture.hs.kr,가사실업계  | 상업계 
경기자동차과학고등학교,경기도 시흥시 금오로 103,37.4142986344313,126.839853827272,031-310-9000,619명,604명,15명,http://www.ghas.hs.kr,공업계  | 상업계  | 일반계 
곡정고등학교,경기도 수원시 권선구 덕영대로 1190번길 130,37.2438433169404,127.020150321616,031-547-7000,752명,357명,395명,http://www.gokjeong.hs.kr/,일반계 
부흥고등학교,경기도 안양시 동안구 달안로 15,37.3933066406004,126.944622150621,031-389-7310,995명,524명,471명,http://www.puhung.hs.kr,일반계 
서연고등학교,경기도 화성시 동탄대로4가길 6,37.1608625605531,127.111432155349,031-3690-159,962명,551명,411명,http://seoyeon.hs.kr/,일반계 
이충고등학교,경기도 평택시 이충로35번길 50,37.0575078703366,127.064987421472,031-612-0600,796명,363명,433명,http://ichung-h.goept.kr,일반계 
경민IT고등학교,경기도 의정부시 서부로 545,37.746124313263,127.025131506194,031-828-7841,532명,322명,210명,http://www.kmit.hs.kr,공업계  | 상업계 
자혜학교,경기도 수원시 권선구 수봉로 47,37.2658624486596,126.977673370412,031-293-6682,100명,0명,0명,http://www.jh.sc.kr,일반계 
함현고등학교,경기도 시흥시 역전로 463,37.3661936072401,126.738456349194,031-430-8226,880명,440명,440명,http://www.hamhyun.hs.kr,일반계 
시흥고등학교,경기도 시흥시 상직길 25,37.3896438691959,126.814188522641,031-317-2744,859명,429명,430명,http://www.siheung.hs.kr,일반계 
안중고등학교,경기도 평택시 안중읍 안중믿음길 32,36.9869916809648,126.923222480107,031-683-3104,473명,473명,0명,http://anjung-h.goept.kr,공업계  | 공업계공통  | 일반계 
서원고등학교,경기도 용인시 수지구 상현로42번길 26-7,37.302478728882,127.081179278288,031-276-7022,1080명,561명,519명,http://www.seowon.hs.kr/home/index.do,일반계 
한국도예고등학교,경기도 이천시 신둔면 둔터로 61,37.2888946800841,127.399334528392,031-638-6841,184명,38명,146명,http://doyego.goeic.kr,공업계  | 특성화 
가좌고등학교,경기도 고양시 일산서구 가좌1로 43,37.6880295205152,126.72018731265,031-910-1900,848명,445명,403명,http://gajwa-h.hs.kr/,일반계 
부곡고등학교,경기도 안산시 상록구 시낭로 78,37.3315306064459,126.857466759639,031-363-0254,824명,416명,408명,http://bugok.hs.kr,일반계 
운중고등학교,경기도 성남시 분당구 운중로 95,37.3927545674111,127.073729306757,031-8017-0593,650명,358명,292명,http://unjung.hs.kr/,일반계 
동두천외국어고등학교,경기도 동두천시 지행로 145,37.8927840411063,127.062726219747,031-864-9906,474명,158명,316명,https://dfl-h.goedy.kr/dfl-h/main.do,외국어계 
양주백석고등학교,경기도 양주시 백석읍 꿈나무로 205,37.7917927360731,126.986741516031,031-826-6412,763명,415명,348명,https://yjbs-h.goedy.kr,일반계 
근명고등학교,경기도 안양시 만안구 삼덕로 49,37.3935412376962,126.920013630522,031-449-3567,647명,226명,421명,http://www.kmh.hs.kr,공업계  | 농업계  | 상업계 
파주여자고등학교,경기도 파주시 월롱면 함영골길 10,37.7751048279209,126.786020813523,031-770-5900,305명,0명,305명,http://www.paju.hs.kr,공업계  | 농업계  | 상업계  | 일반계 
한국외식과학고등학교,경기도 양주시 남면 개나리18길 1,37.8971913261868,126.979894250096,031-863-6126,275명,115명,160명,https://kfs-h.goedy.kr/kfs-h/main.do,가사실업계 
군포중앙고등학교,경기도 군포시 송부로 239,37.3239727431242,126.937217686921,070-4688-3500,579명,296명,283명,http://gpja.hs.kr,일반계 
동탄중앙고등학교,경기도 화성시 동탄대로시범길 167,37.2012579255486,127.110451933067,031-8077-5100,977명,445명,532명,http://dtja.hs.kr,일반계 
부천공업고등학교,경기도 부천시 경인로120번길 82,37.4814124302594,126.766797387234,032-610-7428,455명,379명,76명,http://www.bukong.hs.kr,공업계 
수원정보과학고등학교,경기도 수원시 영통구 동수원로551번길 16,37.2762515255438,127.049650000243,031-218-4000,584명,403명,181명,https://swjb-h.goesw.kr,공업계  | 상업계 
옥정고등학교,경기도 양주시 옥정로7길 47,37.8276885877222,127.088721765284,031-866-8371,866명,397명,469명,https://okjeong-h.goedy.kr,일반계 
동안고등학교,경기도 안양시 동안구 부림로 71,37.390356692996,126.966106438581,031-387-6105,999명,517명,482명,http://www.dongan.hs.kr,일반계 
봉일천고등학교,경기도 파주시 조리읍 소곡로 54,37.7469903612037,126.816272608597,031-945-0857,728명,367명,361명,http://bongilcheon.hs.kr,일반계 
판교고등학교,경기도 성남시 분당구 동판교로 257,37.405148818412,127.114781597442,031-8017-0841,524명,281명,243명,http://pangyo-h.goesn.kr,일반계 
덕소고등학교,경기도 남양주시 와부읍 덕소로 194,37.5793528256648,127.216535852641,031-577-6284,1068명,513명,555명,http://www.deokso.hs.kr,일반계 
보영여자고등학교,경기도 동두천시 동광로 124,37.9119865850457,127.061019589191,031-863-8337,439명,0명,439명,https://boyoung-h.goedy.kr,상업계  | 일반계 
효양고등학교,경기도 이천시 부발읍 대산로545번길 55,37.2652977225853,127.479616832426,031-645-7015,758명,367명,391명,https://hyoyang.goeic.kr,일반계 
비봉고등학교,경기도 화성시 비봉면 양노로109번길 5,37.2372471728271,126.872690149379,031-356-0791,741명,461명,280명,http://bibong.hs.kr,공업계  | 상업계  | 일반계 
상일고등학교,경기도 부천시 부흥로 13,37.4981838550242,126.743711082432,032-226-7400,596명,293명,303명,http://www.sih.hs.kr,일반계 
호원고등학교,경기도 의정부시 망월로 56,37.7056118023599,127.044534276874,031-822-2100,779명,381명,398명,http://www.howon.hs.kr,일반계 
신한고등학교,경기도 평택시 신한1길 26,36.9942725099665,127.102877315419,031-653-8114,906명,518명,388명,http://shinhan-h.goept.kr/,일반계 
덕계고등학교,경기도 양주시 평화로1489번길 34,37.8242860871516,127.047949026005,031-858-9692,686명,411명,275명,https://deokgye-h.goedy.kr/,일반계 
예당고등학교,경기도 화성시 삼성1로 47,37.2083228368667,127.080027370927,031-8055-6300,972명,468명,504명,http://hiyedang.hs.kr,일반계 
광동고등학교,경기도 남양주시 진접읍 장현로광동1길 10,37.7167557707629,127.175168798418,031-570-6600,1050명,559명,491명,http://www.kwangdong.hs.kr,상업계  | 일반계 
경기도한광고등학교,경기도 평택시 중앙1로 115,36.9978903478777,127.09600373342,031-651-3112,909명,909명,0명,https://hk-h.goept.kr,일반계 
한광여자고등학교,경기도 평택시 중앙1로 115,36.9978903478777,127.09600373342,031-651-3122,978명,0명,978명,http://hkg-h.goept.kr/,일반계 
초당고등학교,경기도 용인시 기흥구 동백중앙로 21,37.2587006378702,127.16291877586,031-547-9100,882명,460명,422명,http://www.chodang.hs.kr,일반계 
효자고등학교,경기도 의정부시 부용로 165,37.7531510720583,127.076632947318,031-853-0057,756명,365명,391명,http://www.hyojago.hs.kr/,일반계 
신흥고등학교,경기도 동두천시 신천로 159,37.9310670629669,127.047814120251,031-865-3169,305명,305명,0명,https://shinheung-h.goedy.kr,일반계 
원곡고등학교,경기도 안산시 단원구 화랑로 15,37.3328606203858,126.798684325553,031-8085-0008,865명,445명,420명,http://wongok.hs.kr,일반계 
경기도영신여자고등학교,경기도 수원시 권선구 삼천병마로1566번길 30,37.2419091276997,126.966982344281,031-299-7005,752명,0명,752명,http://ysg-h.goesw.kr,일반계 
부천여자고등학교,경기도 부천시 석천로16번길 37,37.4898733466852,126.761747882384,032-249-0511,573명,0명,573명,http://www.pcg.hs.kr,일반계 
성복고등학교,경기도 용인시 수지구 도마치로 92,37.3233594184389,127.061392483584,031-8008-1327,1093명,553명,540명,http://www.seongbok.hs.kr,일반계 
화요일아침예술학교,경기도 연천군 전곡읍 양원로268번길 106-125,37.9662847941938,127.021012907077,070-8891-3830,8명,0명,8명,http://www.flowerdaymorning.com,일반계 
효원고등학교,경기도 수원시 영통구 동수원로 336,37.2594182738451,127.039051222172,031-228-1516,996명,476명,520명,http://www.hyowon.hs.kr,일반계 
경기외국어고등학교,경기도 의왕시 고산로105번길 30,37.3480700880257,126.959749354626,031-3610-500,568명,142명,426명,http://www.gafl.hs.kr,외국어계 
신장고등학교,경기도 하남시 신장동로 19,37.5438431126187,127.209677829763,031-796-3761,668명,320명,348명,http://shinjang.hs.kr,일반계 
성지고등학교,경기도 용인시 기흥구 갈곡로12번길 13,37.2722846824567,127.131267538042,031-547-3320,1038명,549명,489명,http://www.seongji.hs.kr/,일반계 
김포제일공업고등학교,경기도 김포시 봉화로 69,37.6207044903191,126.710754865323,031-999-3655,552명,429명,123명,http://www.gptech.hs.kr,공업계  | 일반계 
광성드림학교(고),경기도 고양시 일산서구 하이파크로 161,37.7038851033097,126.757480914642,031-929-9500,57명,39명,18명,http://ksdream.or.kr,일반계 
세마고등학교,경기도 오산시 수목원로 559-17,37.1805352658727,127.041345242005,031-370-5000,865명,344명,521명,http://sema.hs.kr,일반계 
분당경영고등학교,경기도 성남시 분당구 금곡로 289,37.3550258133701,127.109687859068,031-8023-1305,686명,266명,420명,https://bundangmgt-h.goesn.kr/bundangmgt-h/main.do,상업계 
운암고등학교,경기도 오산시 운천로 12,37.1438348423566,127.075076201091,031-370-5304,687명,345명,342명,http://www.unam.hs.kr,일반계 
대화고등학교,경기도 고양시 일산서구 대화로 100,37.6683649574458,126.732043861308,031-911-1963,851명,450명,401명,http://www.daehwa-is.hs.kr,일반계 
인덕원고등학교,경기도 안양시 동안구 안양판교로 43,37.3999817328603,126.980776852734,031-424-3092,812명,415명,397명,http://indeogwon.hs.kr/,일반계 
한국문화영상고등학교,경기도 동두천시 평화로2452번길 32,37.9060563125596,127.060130951525,031-860-7300,425명,263명,162명,https://kcm-h.goedy.kr,상업계 
경기영상과학고등학교,경기도 고양시 일산서구 강선로 8,37.6654054556351,126.762100773605,031-919-1160,607명,304명,303명,http://www.gmsh.hs.kr,공업계 
경기체육고등학교,경기도 수원시 장안구 상률로 106,37.3039597065751,126.978533908148,031-547-8500,243명,145명,98명,http://www.gg-ph.hs.kr,체육계 
구성고등학교,경기도 용인시 기흥구 연원로42번길 47,37.2991448296233,127.115613868368,031-284-1380,889명,483명,406명,http://koosung.hs.kr,일반계 
불곡고등학교,경기도 성남시 분당구 금곡로 149,37.3484803302395,127.118523662298,031-710-2810,744명,423명,321명,http://bulgok-h.goesn.kr,일반계 
과천고등학교,경기도 과천시 꿈보람길 26,37.4308558651016,126.997030288572,02-3419-9145,572명,439명,133명,http://gwacheon.hs.kr,일반계 
안성여자고등학교,경기도 안성시 남파로 73-10,37.0181431207241,127.257949036448,031-8056-0105,531명,0명,531명,http://www.anseong.hs.kr,일반계 
성남혜은학교,경기도 성남시 수정구 희망로518번길 8,37.4503954584921,127.153923197252,031-734-5022,192명,0명,0명,https://hyeeun-s.goesn.kr/hyeeun-s/main.do,일반계 
수일고등학교,경기도 수원시 장안구 수일로233번길 59,37.3077151639594,127.018045453723,031-8012-8350,826명,463명,363명,http://www.suil.hs.kr,일반계 
동방학교,경기도 평택시 소사1길 33,36.9912236796249,127.128338051781,031-651-1274,181명,0명,0명,http://dongbang-s.goept.kr,일반계 
동탄국제고등학교,경기도 화성시 동탄나루로 27,37.1892063473719,127.078339112727,031-8015-9000,588명,146명,442명,http://www.dtg.hs.kr,국제계  | 일반계 
풍무고등학교,경기도 김포시 풍무로93번길 53,37.6034582356837,126.719248944512,031-996-4382,1101명,549명,552명,http://www.pungmu.hs.kr,일반계 
양평전자과학고등학교,경기도 양평군 양서면 대심상심길 13,37.5100918596753,127.400933087558,031-5175-0901,171명,157명,14명,http://www.ypes.hs.kr,공업계 
송탄고등학교,경기도 평택시 정암로 142,37.0564103440596,127.069932526292,031-669-9882,474명,259명,215명,https://songtan-h.goept.kr/,일반계 
돌마고등학교,경기도 성남시 분당구 이매로 105,37.3932780063733,127.132164276158,031-780-7500,677명,382명,295명,https://dolma-h.goesn.kr/dolma-h/main.do,일반계 
미사고등학교,경기도 하남시 미사강변한강로 210,37.5705033645184,127.193389052027,031-8026-8500,828명,419명,409명,http://www.misa.hs.kr,일반계 
매홀고등학교,경기도 오산시 내삼미로80번길 9-10,37.1694575137985,127.068850032874,031-370-4350,863명,437명,426명,http://www.maehol.hs.kr,일반계 
동광고등학교,경기도 성남시 중원구 원터로 84,37.4346610960897,127.143427877431,031-754-4811,617명,311명,306명,http://donggwang-h.goesn.kr,일반계 
보라고등학교,경기도 용인시 기흥구 한보라1로43번길 7,37.2514555129439,127.11058806211,031-8005-8780,791명,419명,372명,http://bora.hs.kr/,일반계 
대평고등학교,경기도 수원시 장안구 천천로22번길 21,37.2953573282797,126.988126027434,031-259-3804,779명,433명,346명,http://www.daepyeong.hs.kr,일반계 
세종고등학교,경기도 여주시 청심로 221,37.2954934476973,127.646279063047,031-883-1120,513명,236명,277명,https://se-jong-h.goeyj.kr,상업계  | 일반계 
경기도용문고등학교,경기도 양평군 용문면 용문로 437,37.4918733720804,127.59881542216,031-773-3533,436명,246명,190명,http://www.yongmun.hs.kr,상업계  | 일반계 
안산동산고등학교,경기도 안산시 상록구 충장로 56,37.2868673648874,126.858559094053,031-406-7773,994명,497명,497명,http://www.dsgo.kr,일반계 
수원칠보고등학교,경기도 수원시 권선구 금곡로 127,37.2751358159393,126.944958012393,031-8007-5855,753명,416명,337명,http://www.suwonchilbo.hs.kr,일반계 
관인고등학교,경기도 포천시 관인면 관인로 20,38.1580488087626,127.250586553582,031-538-8200,79명,36명,43명,http://www.kwanin.hs.kr,일반계 
화성고등학교,경기도 화성시 향남읍 장짐길 4,37.139029262941,126.906490376147,031-352-7813,843명,337명,506명,http://www.hwasung.hs.kr,상업계  | 일반계 
평택고등학교,경기도 평택시 중앙로 246,36.9897545010539,127.108322253551,031-650-9843,862명,862명,0명,http://pyeongtaek-h.goept.kr/,일반계 
용인바이오고등학교,경기도 용인시 처인구 이동면 경기동로687번길 28-14,37.1404346030429,127.20076253372,031-8097-3540,148명,71명,77명,http://www.yibio.hs.kr,농업계 
평내고등학교,경기도 남양주시 평내로 57,37.6420545134398,127.234094421429,031-559-5685,848명,458명,390명,http://pyeongnae.hs.kr,일반계 
상동고등학교,경기도 부천시 상이로 22,37.49062564556,126.745065881408,032-220-5007,676명,366명,310명,http://www.sd.hs.kr,일반계 
매원고등학교,경기도 수원시 영통구 삼성로213번길 120,37.2656547562227,127.054533739512,031-218-1543,820명,394명,426명,https://maewon-h.goesw.kr,일반계 
성문고등학교,경기도 안양시 만안구 성결대학로64번길 9,37.3798430757412,126.924685222149,031-449-3607,804명,427명,377명,http://www.sungmoon.hs.kr,일반계 
저동고등학교,경기도 고양시 일산동구 무궁화로 165,37.6708657522846,126.779057686217,031-917-0671,870명,465명,405명,http://www.jeodong.hs.kr/,일반계 
화정고등학교,경기도 고양시 덕양구 화정로 17,37.6362186066067,126.827523143016,031-930-0608,812명,424명,388명,http://www.hwajung.hs.kr,일반계 
시흥능곡고등학교,경기도 시흥시 승지로 107,37.3739384706284,126.811947368076,031-8084-8102,789명,349명,440명,http://www.shng.hs.kr,일반계 
성일정보고등학교,경기도 성남시 중원구 시민로77번길 10-2,37.433261827701,127.145704648371,031-720-1300,902명,502명,400명,http://www.sungil-i.kr,상업계 상업계 상업계 
성안고등학교,경기도 안산시 상록구 용신로 170,37.3027209378571,126.842786264298,031-363-0500,904명,449명,455명,http://www.seongan.hs.kr,일반계 
정왕고등학교,경기도 시흥시 정왕대로118번길 13,37.3504400550505,126.72844755222,031-488-5310,1066명,537명,529명,http://www.jwg.hs.kr,일반계 
안산국제비즈니스고등학교,경기도 안산시 상록구 수인로 1981,37.3609470356859,126.874144218911,031-483-6181,677명,286명,391명,http://www.ansanib.hs.kr,상업계 
조종고등학교,경기도 가평군 조종면 연등윗길 22,37.814359090829,127.346613755217,031-585-0383,154명,88명,66명,http://www.jojong.hs.kr,상업계  | 일반계 
보정고등학교,경기도 용인시 기흥구 보정로 22,37.3139010844141,127.10964815939,031-270-7203,997명,520명,477명,http://www.Bojeong.hs.kr,일반계 
오남고등학교,경기도 남양주시 오남읍 진건오남로 784-27,37.6982648807208,127.206016333047,031-570-3300,1055명,494명,561명,http://www.onam.hs.kr,일반계 
모락고등학교,경기도 의왕시 모락로 134,37.3699374818308,126.967005796684,031-428-2250,576명,295명,281명,http://www.morak.hs.kr,일반계 
수택고등학교,경기도 구리시 검배로 145,37.594879069884,127.154580841963,031-551-0673,633명,261명,372명,http://www.sutaek.hs.kr,일반계 
이포고등학교,경기도 여주시 흥천면 이여로 1075,37.3763892516494,127.516830382283,031-882-9527,82명,51명,31명,https://ipo-h.goeyj.kr/ipo-h/main.do,일반계 
한백고등학교,경기도 화성시 동탄순환대로26길 21,37.207596472853,127.113486207938,031-8055-5312,994명,478명,516명,http://www.hanbaek.hs.kr,일반계 
서해고등학교,경기도 시흥시 정왕신길로 13,37.3605929327388,126.723907523525,031-496-2969,1084명,574명,510명,http://www.seohae.hs.kr,일반계 상업계  | 일반계 
감일고등학교,경기도 하남시 감일순환로 165,37.5095434868425,127.160169485737,02-480-7390,288명,137명,151명,http://gamil.hs.kr,일반계 
이의고등학교,경기도 수원시 영통구 법조로 145,37.2923720762161,127.071081885662,031-280-6500,909명,440명,469명,http://iui.hs.kr,일반계 
군포e비즈니스고등학교,경기도 군포시 수리산로 153,37.3630530787143,126.918542164562,031-390-5322,480명,261명,219명,http://www.gunpo-ebiz.hs.kr/,공업계  | 상업계 
신천고등학교,경기도 시흥시 포도원로 50,37.4351037039142,126.778397821095,070-7871-5800,755명,370명,385명,http://www.sch.hs.kr,일반계 
쉐마기독학교(고),경기도 양주시 은현면 화합로1080번길 184-16,37.8494811958077,127.0265688599,031-858-3144,78명,35명,43명,https://scs.goedy.kr,일반계 
경기도청담고등학교,경기도 평택시 팽성읍 팽성송화로 192,36.9622152688947,127.062430253066,031-691-8095,569명,371명,198명,https://cheongdam-h.goept.kr/,공업계  | 상업계  | 일반계 
지산고등학교,경기도 파주시 가람로21번길 27-37,37.7354560541671,126.749870985895,031-930-4600,1183명,556명,627명,http://www.pajujisan.hs.kr,일반계 
경기과학고등학교,경기도 수원시 장안구 수일로 135,37.3088149987319,127.006408318511,031-259-0400,379명,333명,46명,http://www.gs.hs.kr,과학계 
동원고등학교,경기도 수원시 장안구 장안로 426-1,37.3198190090964,126.982403493322,031-259-4000,855명,855명,0명,http://www.dongwon.hs.kr,일반계 
한빛고등학교,경기도 파주시 한빛로 36,37.7134805015113,126.754888550638,031-946-7012,1156명,482명,674명,http://hanbit.hs.kr,일반계 
경기도대신고등학교,경기도 여주시 대신면 여양로 1196,37.3635348209376,127.608115284525,031-882-8736,248명,134명,114명,https://daeshin-h.goeyj.kr,일반계 
계원예술고등학교,경기도 성남시 분당구 불정로 100,37.3583619161056,127.115506089721,031-710-8500,970명,175명,795명,http://www.kaywon.hs.kr,예술계 
영생고등학교,경기도 수원시 장안구 서부로2198번길 22,37.3047331092463,126.974236139778,031-259-9555,865명,481명,384명,https://myys-h.goesw.kr,일반계 
부천정보산업고등학교,경기도 부천시 신상로 94,37.4963645203081,126.749410280188,032-322-2168,603명,314명,289명,http://www.ibucheon.hs.kr,공업계  | 상업계 
수성고등학교부설방송통신고등학교,경기도 수원시 장안구 장안로90번길 39,37.2936136656286,127.002657095586,031-259-1320,361명,171명,190명,http://www.cyber.hs.kr,일반계 
이솔고등학교,경기도 화성시 동탄순환대로 7길 10,37.1667524081286,127.111145925935,031-899-5900,469명,274명,195명,http://www.isol.hs.kr/wah/main/index.htm,일반계 
광주고등학교,경기도 광주시 수하길19번길 43,37.4176664433855,127.265711011811,031-799-7110,815명,815명,0명,http://www.gwangju-highschool.hs.kr,일반계 
경민고등학교,경기도 의정부시 서부로 545,37.746124313263,127.025131506194,031-828-7801,719명,335명,384명,http://www.kyungmin.hs.kr,일반계 
운양고등학교,경기도 김포시 김포한강11로 58,37.6451440654629,126.689679844758,031-996-6285,974명,435명,539명,http://unyang.hs.kr/,일반계 
녹양중학교,경기도 의정부시 체육로 187,37.7616514662693,127.028419591307,031-829-9743,398명,235명,163명,http://www.nogyang.ms.kr,일반계 
풍생고등학교,경기도 성남시 수정구 산성대로 111,37.4350429469789,127.131414647534,031-7508-402,657명,341명,316명,http://ps.hs.kr,일반계 
이천세무고등학교,경기도 이천시 설성면 설성로15번길 26,37.136074918587,127.518885467383,031-641-6038,143명,88명,55명,http://i-tax.hs.kr,상업계  | 일반계 
서정고등학교,경기도 고양시 덕양구 서정마을2로 39,37.6212451469091,126.849384865003,031-930-3909,742명,375명,367명,http://www.seojeong.hs.kr,일반계 
경민비즈니스고등학교,경기도 의정부시 서부로 545,37.746124313263,127.025131506194,031-828-7822,492명,0명,492명,http://www.kmbiz.hs.kr,상업계 
한민고등학교,경기도 파주시 광탄면 혜음로 765,37.7580571552923,126.858036734073,031-937-6600,1042명,430명,612명,http://www.hanmin.hs.kr,일반계 
청평고등학교,경기도 가평군 청평면 강변나루로40번길 23,37.7314841621598,127.415005366491,031-589-5511,214명,139명,75명,http://www.cheongpyeong.hs.kr,공업계  | 일반계 
경기도백암고등학교,경기도 용인시 처인구 백암면 백원로 519-9,37.1649680002388,127.368572795135,031-326-0010,164명,99명,65명,http://www.baegam.hs.kr,상업계  | 일반계 
향남고등학교,경기도 화성시 향남읍 행정동로 49,37.1288863560633,126.926267831245,031-8059-9256,776명,391명,385명,http://www.hyangnam.hs.kr,일반계 
김포고등학교,경기도 김포시 봉화로 37-15,37.6183997786843,126.713008998928,031-984-2377,1006명,515명,491명,http://www.gimpo.hs.kr,일반계 
늘푸른고등학교,경기도 성남시 분당구 성남대로407번길 26,37.3733845314728,127.10528803278,031-726-4041,748명,407명,341명,https://npr-h.goesn.kr,일반계 
경기항공고등학교,경기도 광명시 새터안로 20,37.4733134679848,126.857035053323,02-2613-0024,242명,224명,18명,http://www.gahs.hs.kr,공업계 
덕정고등학교,경기도 양주시 화합로 1488,37.8375422553893,127.071776850182,031-858-6383,780명,430명,350명,https://deokjeong-h.goedy.kr/,일반계 
가평고등학교,경기도 가평군 가평읍 호반로 2601,37.8182842898606,127.513085528699,031-580-7021,571명,286명,285명,http://www.gapyong.hs.kr,공업계  | 상업계  | 일반계 
태원고등학교,경기도 성남시 분당구 성남대로 822,37.4039163186008,127.129021290059,031-704-6601,957명,528명,429명,https://taewon-h.goesn.kr,일반계 
안산디자인문화고등학교,경기도 안산시 상록구 각골로 87,37.2969200104323,126.871309881699,031-400-3100,815명,253명,562명,http://www.adc.hs.kr,가사실업계  | 공업계  | 상업계 
영덕고등학교,경기도 수원시 영통구 매영로 334,37.2524221904093,127.068471650174,031-201-9100,954명,458명,496명,http://www.yeongdeok.hs.kr,일반계 
과천여자고등학교,경기도 과천시 희망길 36,37.4326435517116,126.988107313228,02-502-3313,361명,0명,361명,http://www.gcwoman.hs.kr,일반계 
하남고등학교,경기도 하남시 미사강변남로 39,37.5603837003449,127.1856181666,031-792-3083,837명,417명,420명,http://www.hanam.hs.kr,일반계 
흥덕고등학교,경기도 용인시 기흥구 흥덕2로 36,37.2707575816693,127.074458705617,031-218-0200,697명,363명,334명,http://www.hd.hs.kr,일반계 
청심국제중학교,경기도 가평군 설악면 미사리로 324-213,37.6870224043158,127.540556175158,031-589-8900,319명,117명,202명,http://www.csia.hs.kr,일반계 
한국디지털미디어고등학교,경기도 안산시 단원구 사세충열로 94,37.342316600236,126.830942260296,031-363-7800,581명,388명,193명,http://www.dimigo.hs.kr,상업계  | 특성화 
송림고등학교,경기도 성남시 분당구 이매로 100,37.3919127231522,127.131809772912,031-704-6705,787명,442명,345명,http://songlim-h.goesn.kr,일반계 
광주중앙고등학교,경기도 광주시 역동로63번길 1,37.4034728878347,127.257944544986,031-799-7443,1190명,696명,494명,http://www.gjja.hs.kr,공업계  | 농업계  | 일반계 
연천고등학교,경기도 연천군 연천읍 연천로336번길 13,38.108223907138,127.076673114788,031-834-1427,137명,84명,53명,http://www.yeoncheon.hs.kr,농업계  | 상업계  | 일반계 
창의경영고등학교,경기도 광명시 기아로13번안길 9-9,37.438357404839,126.882156791718,02-898-3395,362명,207명,155명,http://www.cem.hs.kr,상업계 
경기도기흥고등학교,경기 용인시 기흥구 관곡로 20,37.2822921054049,127.108852976045,031-679-1940,913명,483명,430명,http://www.giheung.hs.kr,일반계 
가운고등학교,경기도 남양주시 가운로2길 115,37.5994472086508,127.160699016868,031-567-2913,892명,517명,375명,http://www.gaun.hs.kr,일반계 
의왕고등학교,경기도 의왕시 덕영대로 115,37.3225284872235,126.958507597711,031-462-9773-1,566명,293명,273명,http://www.uiwang.hs.kr,일반계 
경기예술고등학교,경기도 부천시 석천로209번길 37,37.505753594354,126.761368309355,032-328-0844,667명,128명,539명,http://www.kgart.hs.kr,예술계 
남양주다산고등학교,경기도 남양주시 다산중앙로146번길 50,37.6255765427647,127.158663659681,031-522-7400,792명,431명,361명,http://nydasan.hs.kr,일반계 
태성고등학교,경기도 용인시 처인구 백옥대로 1059-2,37.2289200685354,127.208832428103,031-335-9181~7,727명,727명,0명,http://www.taesung.hs.kr,일반계 
안산공업고등학교,경기도 안산시 상록구 안산공고로 51,37.3363468249944,126.861589206681,031-482-8955,976명,755명,221명,http://www.ansanth.net,공업계 
삼일공업고등학교,경기도 수원시 팔달구 수원천로392번길 44-60,37.2855447348645,127.020555446493,031-257-3131,982명,672명,310명,http://www.samil-th.or.kr,공업계 공업계 
양일고등학교,경기도 양평군 양평읍 관문2길 9,37.4943705068103,127.49349091127,031-772-2281,659명,347명,312명,http://www.yangil.hs.kr,상업계  | 일반계 
대지고등학교,경기도 용인시 수지구 동백죽전대로 1066,37.3247789428124,127.122551563504,031-210-2810,924명,468명,456명,http://daeji.hs.kr,일반계 
서울삼육고등학교,경기도 구리시 아차산로487번길 70,37.5952268017404,127.124523278552,0315123768,587명,345명,242명,http://www.seoul36.hs.kr,일반계 
수원공업고등학교,경기도 수원시 팔달구 세지로 254,37.2742667467272,127.024521555989,031-80061-200,1085명,959명,126명,http://www.sugong.org,공업계 공업계 
부원고등학교,경기도 이천시 장호원읍 서동대로 8857,37.1167331269222,127.619479033189,031-645-6200,289명,207명,82명,http://buwon.goeic.kr,공업계  | 일반계 
양주고등학교,경기도 양주시 삼숭로38번길 78-52,37.7948411497307,127.107284000611,031-843-1203,628명,360명,268명,https://yangju-h.goedy.kr/yangju-h/main.do,일반계 
여주제일고등학교,경기도 여주시 가남읍 여주남로 1155-11,37.2068381181667,127.554564374367,031-882-3353,395명,198명,197명,https://yeojufirst-h.goeyj.kr,상업계  | 일반계 
성남금융고등학교,경기도 성남시 분당구 장미로 153,37.4137781312627,127.138673785883,031-706-0291,475명,233명,242명,https://snfn-h.goesn.kr,공업계  | 상업계 
성광학교,경기도 하남시 신장로55번길 71,37.5325888129481,127.210496555489,031-791-8181,133명,0명,0명,http://sksk.org,일반계 
송호고등학교,경기도 안산시 상록구 광덕3로 296,37.3105026685425,126.845204395703,031-415-8680,900명,447명,453명,http://www.songho.hs.kr,일반계 
솔뫼중학교,경기도 의정부시 시민로 464-14,37.7308383941908,127.082382214628,031-840-8612,458명,233명,225명,http://www.solmoe.ms.kr,일반계 
단원고등학교,경기도 안산시 단원구 단원로 55,37.3273054006676,126.82399769173,031-488-0087,707명,359명,348명,http://danwon.hs.kr/,일반계 
경기대명고등학교,경기도 수원시 권선구 수인로598번길 3-24,37.2960197477209,126.93998494869,031-300-3600,64명,36명,28명,http://www.daemyoung.hs.kr,대안 
도농고등학교,경기도 남양주시 다산순환로 1,37.6113886857018,127.150911358218,031-522-6022,798명,413명,385명,http://www.donong.hs.kr,일반계 
죽전고등학교,경기도 용인시 수지구 용구대로2771번길 23,37.3326302589601,127.106046949443,031-8006-0303,1077명,551명,526명,http://jukjeon.hs.kr/,일반계 
일동고등학교,경기도 포천시 일동면 화동로1079번길 28,37.9606328929335,127.314419739755,031-532-3811,220명,143명,77명,http://www.ildong.hs.kr,공업계  | 상업계  | 일반계 
고양동산고등학교,경기도 고양시 덕양구 동세로 20,37.6446531222098,126.887645513327,02-381-0097,584명,298명,286명,http://www.gydongsan.hs.kr,일반계 
고잔고등학교,경기도 안산시 단원구 광덕2로 222,37.3087874891433,126.835345815819,031-486-6764,897명,457명,440명,http://www.kojan.hs.kr,일반계 
안양해솔학교,경기도 안양시 만안구 호암로30번길 61,37.4348883896291,126.912903385502,031-471-5824,199명,0명,0명,http://www.haesol.sc.kr/,일반계 
광명고등학교,경기도 광명시 오리로876번길 17,37.478571169867,126.865989571814,02-2680-0583,875명,452명,423명,http://www.gmhs.hs.kr,일반계 
발안바이오과학고등학교,경기도 화성시 향남읍 발안로 71,37.1329343819495,126.917004479543,031-352-9512,301명,101명,200명,http://www.bio.hs.kr,농업계 
삼일상업고등학교,경기도 수원시 팔달구 수원천로392번길 44-28,37.286383931134,127.019679120108,031-8065-8800,867명,297명,570명,http://www.samil.hs.kr,공업계  | 농업계  | 상업계 
도당고등학교,경기도 부천시 삼작로256번길 53-3,37.5186225578908,126.790960837082,032-680-8514,655명,359명,296명,http://dodang.hs.kr,일반계 
수리고등학교,경기도 군포시 수리산로 39,37.3552620138548,126.91977118324,031-397-2815,1089명,564명,525명,http://www.suri.hs.kr,일반계 
계남고등학교,경기도 부천시 부흥로 261,37.4961969251976,126.772610512053,032-717-7100,685명,372명,313명,http://gyenam.hs.kr,일반계 
부천북고등학교,경기도 부천시 삼작로256번길 40,37.5184930271347,126.789053814067,032-221-6809,661명,363명,298명,http://www.puchonbuk.hs.kr,일반계 
성포고등학교,경기도 안산시 상록구 충장로 538,37.3261096202645,126.851300321771,031-599-9158,832명,420명,412명,http://seongpo.hs.kr,일반계 
이현고등학교,경기도 이천시 증신로 88,37.2856212459361,127.457717994671,031-645-6500,765명,205명,560명,https://ihyeon.goeic.kr/,일반계 
문산제일고등학교,경기도 파주시 평화로 190,37.7726039859556,126.762887305161,031-950-9400,731명,401명,330명,http://www.munsanjeil.hs.kr,공업계  | 농업계  | 일반계 
청명고등학교,경기도 수원시 영통구 영통로 466,37.2608904192531,127.077324874797,031-201-9600,910명,433명,477명,http://www.cm-h.hs.kr,일반계 
청북고등학교,경기도 평택시 청북읍 안청로4길 55,37.0225088033394,126.919824744397,031-647-5119,833명,368명,465명,http://cheongbuk-h.goept.kr,일반계 
성보경영고등학교,경기도 성남시 수정구 논골로 82,37.4618466413048,127.158526499046,031-742-7714,941명,366명,575명,http://seongbo-h.goesn.kr,가사실업계  | 상업계 
고양예술고등학교,경기도 고양시 일산서구 덕이로172번길 4-39,37.6973530372169,126.741611483859,031-929-0700,801명,146명,655명,http://www.goarts.hs.kr,예술계 
하남경영고등학교,경기도 하남시 대청로116번길 11,37.5385141775908,127.226358054154,031-795-6303,563명,329명,234명,http://www.hanambiz.hs.kr,공업계  | 상업계 
의정부광동고등학교,경기도 의정부시 서부로 691,37.7555436632056,127.036201014586,031-849-5500,667명,321명,346명,http://www.ukd.hs.kr,일반계 
양명고등학교,경기도 안양시 만안구 경수대로1001번길 184,37.4086403696387,126.92001666949,031-470-3500,967명,967명,0명,http://www.yangmyung.hs.kr/,일반계 
백석고등학교,경기도 고양시 일산동구 강촌로 115,37.652906300665,126.786918944084,031-901-0506,864명,461명,403명,http://www.baekseok.hs.kr,일반계 
안양예술고등학교,경기도 안양시 만안구 양화로25번길 40,37.3958070369674,126.911416806572,031-466-8855,904명,218명,686명,http://www.anyangart.hs.kr,예술계 
매향여자정보고등학교,경기도 수원시 팔달구 수원천로 350,37.2845735546807,127.018621688707,031-2590-700,814명,0명,814명,http://www.maehyang.hs.kr,가사실업계  | 상업계 
송내고등학교,경기도 부천시 서촌로20번길 13,37.4867418847551,126.745411051151,0326500440,641명,349명,292명,http://www.shs.hs.kr,일반계 
경기세무고등학교,경기도 파주시 적성면 솥뒤로33번길 60,37.9543177820288,126.914534500727,031-959-4169,63명,49명,14명,http://gyeonggitax.hs.kr,상업계  | 일반계 
동화고등학교,경기도 남양주시 경춘로 434,37.6079309897008,127.16190370304,031-551-0527,1216명,548명,668명,http://www.donghwa.hs.kr,일반계 
정현고등학교,경기도 화성시 동탄산척로 93-10,37.1735223405228,127.111403789202,031-630-5610,1203명,586명,617명,http://www.jeonghyeon.hs.kr/,일반계 
한국조리과학고등학교,경기도 시흥시 금오로 640,37.4585179846569,126.832361282931,02-2610-4600,702명,310명,392명,http://www.kcas.hs.kr,가사계  | 특성화 
경기도성남고등학교,경기도 성남시 중원구 시민로 61,37.4340243366459,127.147464931676,031-7290-300,546명,546명,0명,https://seongnam-h.goesn.kr,일반계 
가온고등학교,경기도 안성시 샛터길 46,36.9884209352759,127.276054336595,031-674-5022,792명,375명,417명,http://www.gaon.hs.kr,상업계  | 일반계 
서현고등학교,경기도 성남시 분당구 분당로 87,37.3822220478195,127.124059549433,031-701-5993,830명,467명,363명,https://seohyun-h.goesn.kr/,일반계 
동탄고등학교,경기도 화성시 동탄공원로1길 26-7,37.2041406279111,127.060383573686,031-660-0100,984명,530명,454명,http://www.dongtan.hs.kr,일반계 
양명여자고등학교,경기도 안양시 만안구 경수대로1001번길 150,37.4069762729152,126.922172500806,031-470-3600,794명,0명,794명,http://www.ymgh.or.kr,일반계 
홀트학교,경기도 고양시 일산서구 탄현로 42,37.6962653853503,126.770951145242,031-915-2913,181명,0명,0명,http://www.holt.sc.kr,일반계 
양영디지털고등학교,경기도 성남시 분당구 불정로386번길 35,37.3740175339414,127.140011244187,031-778-2400,382명,308명,74명,http://yy-h.goesn.kr,공업계 
원종고등학교,경기도 부천시 소사로 807번길 68,37.5284958228655,126.800497391215,032-222-5807,686명,369명,317명,http://www.wonjong.hs.kr,일반계 
도래울고등학교,경기도 고양시 덕양구 도래울1로 67,37.6285819732275,126.870572421352,031-968-9261,677명,354명,323명,http://doraeul.hs.kr,일반계 
안화고등학교,경기도 화성시 병점3로 132-19,37.211922802148,127.048462534777,031-220-0390,1000명,466명,534명,http://anhwa.hs.kr,일반계 
경기물류고등학교,경기도 평택시 안중읍 안현로 403,36.9869248305206,126.929636224502,031-650-9911,461명,211명,250명,https://ggl-h.goept.kr/,상업계  | 일반계 
은행고등학교,경기도 시흥시 은행고길 85,37.4434163916181,126.802987318765,031-363-5000,930명,446명,484명,http://eunhaeng.hs.kr,일반계 
산본고등학교,경기도 군포시 산본로 451-12,37.3705257666015,126.925412097799,031-390-8331,1051명,552명,499명,http://www.sanbon.hs.kr,일반계 
수원여자고등학교,경기도 수원시 팔달구 고등로59번길 72,37.2768359099875,127.004355045767,031-250-9185,838명,0명,838명,https://suwong-h.goesw.kr,일반계 
용인백현고등학교,경기도 용인시 기흥구 동백7로 112,37.2793220390121,127.162058324256,031-693-9311,818명,429명,389명,http://www.baekhyun.hs.kr,일반계 
과천중앙고등학교,경기도 과천시 교육원로 17,37.4230148474934,126.986570246908,02-3677-1807,528명,407명,121명,http://www.gcja.hs.kr,일반계 
여강고등학교,경기도 여주시 북내면 여강로 337-8,37.3294452758732,127.683497253827,031-882-0109,242명,117명,125명,https://yeogang-h.goeyj.kr,상업계  | 일반계 
충훈고등학교,경기도 안양시 만안구 석수로 238,37.4108821262649,126.89303215987,031-472-5382,687명,360명,327명,http://www.chunghun.hs.kr,일반계 
동두천고등학교,경기도 동두천시 평화로2434번길 8,37.9047147113265,127.059253867698,031-860-1300,379명,198명,181명,https://tdc-h.goedy.kr/tdc-h/main.do,일반계 
동암중학교,경기도 의정부시 장곡로226번길 132,37.721564338678,127.058382656659,031-849-0300,714명,357명,357명,http://www.ujdongam.ms.kr,일반계 
구리고등학교,경기도 구리시 장자대로 89,37.5885709330678,127.140093882394,031-556-3953,609명,609명,0명,http://www.guri.hs.kr,일반계 
청심국제고등학교,경기도 가평군 설악면 미사리로 324-213,37.6870224043158,127.540556175158,031-589-8900,304명,125명,179명,http://www.csia.hs.kr,국제계  | 일반계 
분당영덕여자고등학교,경기도 성남시 분당구 판교로592번길 13,37.4052985876291,127.139407108495,031-724-6000,709명,0명,709명,http://bdyoungduk-h.goesn.kr,일반계 
이천제일고등학교,경기도 이천시 애련정로 26,37.2782588768621,127.461395149168,"031-633-3271,3273",1035명,745명,290명,https://2000hs.goeic.kr/,공업계  | 농업계  | 일반계 
주엽고등학교,경기도 고양시 일산서구 킨텍스로 341,37.6761034756052,126.754358970969,031-910-3800,923명,492명,431명,http://jygo.net,일반계 
수지고등학교,경기도 용인시 수지구 수풍로 73,37.3313198448189,127.092227406816,031-260-5303,1217명,641명,576명,http://www.suji.hs.kr,일반계 
통진고등학교,경기도 김포시 통진읍 김포대로 2165,37.685853108271,126.602147568467,031-987-0127,772명,442명,330명,http://www.tongjin.hs.kr,공업계  | 상업계  | 일반계 
상원고등학교,경기도 부천시 상동로 10,37.4983969277954,126.752321244493,070-4311-3018,676명,359명,317명,http://sw.hs.kr,일반계 
이우고등학교,경기도 성남시 분당구 동막로 287,37.3532432589634,127.090940989637,031-710-6903,240명,117명,123명,http://www.2woo.net,대안  | 일반계  | 특성화 
소하고등학교,경기도 광명시 소하일로 21,37.4472460606846,126.887582140338,02-6331-1210,894명,462명,432명,http://www.soha.hs.kr,일반계 
경화여자English Business고등학교,경기도 광주시 수하길11번길 43,37.4182430716596,127.263991443365,031-799-0600,354명,0명,354명,http://www.kyunghwaeb.hs.kr,상업계 
경기국제통상고등학교,경기도 부천시 석천로 141,37.5004693546746,126.760861520011,032-320-6218,548명,241명,307명,http://www.gitra.hs.kr,상업계 
문산고등학교,경기도 파주시 문산읍 당동1로 22,37.8629655179087,126.775962360135,031-950-9600,327명,193명,134명,http://munsan.hs.kr,일반계 
벌원초등학교,경기도 광주시 회안대로 621-36,37.4094046545831,127.236932577672,031-798-9163,558명,277명,281명,http://www.beolwon.es.kr,일반계 
심석고등학교,경기도 남양주시 화도읍 마석로 62,37.6560344532752,127.306885363211,031-590-6710,1044명,519명,525명,http://www.simseok.hs.kr/,상업계  | 일반계 
삼광고등학교,경기도 파주시 적성면 청송로 701,37.9455777258231,126.885509510766,031-958-3780,118명,71명,47명,http://samkwang.hs.kr,일반계 
안양외국어고등학교,경기도 안양시 만안구 양화로37번길 36,37.3957610400926,126.9086344228,031-470-4000,612명,144명,468명,http://www.anyang-fl.hs.kr,외국어계 
안양공업고등학교,경기도 안양시 만안구 양화로28번길 69,37.3995639195258,126.914329021324,031-463-0110,366명,319명,47명,http://anyang-t.hs.kr,공업계 공업계 
심원고등학교,경기도 부천시 원미구 계남로 284,37.5048568460543,126.778928296799,032-320-9215,674명,364명,310명,http://www.shimwon.hs.kr,일반계 
중흥고등학교,경기도 부천시 계남로 171,37.5086048007069,126.768651281239,032-722-3107,657명,349명,308명,http://jh.hs.kr,일반계 
운천고등학교,경기도 오산시 운천로 193,37.1559878453373,127.080351555593,031-371-9900,869명,372명,497명,http://www.uncheon.hs.kr,일반계 
분당중앙고등학교,경기도 성남시 분당구 불정로 174,37.3606471247268,127.124625790099,031-8020-8201,729명,423명,306명,https://bdja-h.goesn.kr,일반계 
화수고등학교,경기도 고양시 덕양구 화수로 51,37.6450690727675,126.836129240037,031-960-4500,834명,439명,395명,http://www.hwasu.hs.kr,일반계 
죽산고등학교,경기도 안성시 죽산면 죽산향교길 54-40,37.0821286275131,127.423946656033,031-8056-6600,90명,54명,36명,http://www.Juksan.hs.kr,상업계  | 일반계 
덕이고등학교,경기도 고양시 일산서구 하이파크1로 64,37.6958055850984,126.754544795231,031-960-3600,870명,448명,422명,http://www.deogi.hs.kr/,일반계 
비전고등학교,경기도 평택시 비전3로 12,37.0009277974302,127.105767060857,031-610-9704,963명,366명,597명,http://bijeon-h.goept.kr,일반계 
군서고등학교,경기도 시흥시 군서마을로 100,37.3491817533445,126.742502248101,031-363-1525,976명,425명,551명,http://www.gunseo.hs.kr,일반계 
배곧고등학교,경기도 시흥시 배곧4로 94-10,37.3740915420452,126.732539952656,070-7014-4300,994명,460명,534명,http://baegot.hs.kr/,일반계 
마송고등학교,경기도 김포시 통진읍 마송1로 155,37.6872226720344,126.59361191341,031-987-6571,400명,230명,170명,http://www.masong.hs.kr/,일반계 
포천일고등학교,경기도 포천시 군내면 청군로 3426,37.8947496102494,127.205230934251,031-535-0692,520명,304명,216명,http://pocheonil.hs.kr,농업계  | 상업계  | 일반계 
동패고등학교,경기도 파주시 교하로 350,37.7112092819957,126.734357904022,031-956-8606,1160명,580명,580명,http://www.dongpae.hs.kr,일반계 
갈매고등학교,경기도 구리시 갈매순환로 75,37.6273850004407,127.117650376835,031-524-6000,629명,381명,248명,http://www.galmae.hs.kr,일반계 
군포고등학교,경기도 군포시 오금로 118,37.3576039286502,126.940449081045,031-395-8001,856명,447명,409명,http://www.gunpo.hs.kr,일반계 
성남테크노과학고등학교,경기도 성남시 중원구 둔촌대로258번길 7,37.4276400391844,127.147440093612,031-753-0253,371명,302명,69명,https://sts-h.goesn.kr/sts-h/main.do,공업계 
부천혜림학교,경기도 부천시 경인로304번길 26,37.48079574457,126.788515276484,032-664-7995,85명,0명,0명,http://www.hl.sc.kr,일반계 
평촌경영고등학교,경기도 안양시 동안구 학의로 186,37.401072919757,126.959027340907,031-387-0271,754명,443명,311명,http://www.pcm.hs.kr,공업계  | 상업계 
호평고등학교,경기도 남양주시 호평로 109,37.657193862207,127.252789849171,031-590-1723,817명,368명,449명,http://www.hopyeong.hs.kr,일반계 
부천고등학교,경기도 부천시 경인로92번길 70,37.4799139813933,126.766303905658,032-611-9431,669명,669명,0명,http://www.bch.hs.kr,일반계 
풍산고등학교,경기도 하남시 덕풍서로 11,37.5511329210708,127.199687075613,031-790-0900,652명,322명,330명,http://www.p-s.hs.kr,일반계 
흥진고등학교,경기도 군포시 오금로 15-17,37.3523753715844,126.929199729846,031-390-4109,935명,491명,444명,http://www.hungjin.hs.kr,일반계 
신원고등학교,경기도 고양시 덕양구 통일로 391,37.6684055729011,126.886943023008,02-3146-8600,366명,192명,174명,http://sinwon.hs.kr,일반계 
경기도광문고등학교,경기도 광명시 원광명안로 39,37.4646213734418,126.84959121553,02-2610-2500,817명,414명,403명,http://www.kmoon.hs.kr,일반계 
정명고등학교,경기도 부천시 심곡로 100,37.4750206965388,126.773051147432,032-653-0181,733명,395명,338명,http://jeongmyung.hs.kr/,일반계 
하길고등학교,경기도 화성시 향남읍 상신하길로274번길 22,37.1118639017192,126.910545789266,031-8055-3900,926명,507명,419명,http://www.hagil.hs.kr/,일반계 
조원고등학교,경기도 수원시 장안구 수일로233번길 15,37.3073441859489,127.015667305962,031-8012-1700,773명,424명,349명,http://www.jowon.hs.kr,일반계 
신나는학교(고),경기도 안성시 백성2길 59,37.0111713292972,127.266621985181,031-670-8725,3명,1명,2명,http://,일반계 
곤지암고등학교,경기도 광주시 곤지암읍 곤지암로 82,37.3485630761216,127.337609148242,031-762-6040,376명,238명,138명,http://www.gonjiam.hs.kr,상업계  | 일반계 
토평고등학교,경기도 구리시 장자대로111번길 41,37.5893444072528,127.14312069277,031-560-6000,638명,331명,307명,http://www.top.hs.kr,일반계 
상록고등학교,경기도 안산시 상록구 반석로4길 34,37.2989892228441,126.874651758323,031-364-6700,904명,457명,447명,http://sangrok.hs.kr,일반계 
동우여자고등학교,경기도 수원시 장안구 장안로 426-1,37.3198190090964,126.982403493322,031-259-4023,778명,0명,778명,http://www.dongwoo.hs.kr,일반계 
백양고등학교,경기도 고양시 덕양구 화신로 199,37.6294945854297,126.838426884827,031-978-8128,809명,429명,380명,http://www.paikyang.hs.kr,일반계 
청운고등학교,경기도 양평군 청운면 청운로 28,37.5533440524255,127.711467983925,031-771-7931,56명,45명,11명,http://www.cheongun.hs.kr,일반계 
성은학교,경기도 성남시 분당구 돌마로 866,37.4091199512449,127.143952518827,031-706-6983,224명,0명,0명,https://sbse-s.goesn.kr,일반계 
고양외국어고등학교,경기도 고양시 덕양구 통일로 820,37.6905275269194,126.859278712864,031-969-9072,702명,199명,503명,http://gyfl.hs.kr,외국어계 
미사강변고등학교,경기도 하남시 미사강변한강로 75,37.5777571028224,127.183730879972,031-8026-1400,623명,366명,257명,http://www.msgb.hs.kr/,일반계 
시흥매화고등학교,경기도 시흥시 매화로 35,37.4160928574422,126.81609328015,031-365-8365,582명,323명,259명,http://www.mh.hs.kr,일반계 
마석고등학교,경기도 남양주시 화도읍 녹촌로 35,37.6438071545003,127.299314649638,031-590-9902,969명,433명,536명,http://www.maseok.hs.kr,일반계 
초월고등학교,경기도 광주시 초월읍 무들로 3-25,37.3876836629746,127.289818335444,031-737-9900,1086명,504명,582명,http://www.chowol.hs.kr,일반계 
용인홍천고등학교,경기도 용인시 수지구 수지로227번길 22,37.3222107240395,127.082397094711,031-8008-1100,1117명,582명,535명,http://www.hongchun.hs.kr,일반계 
세경고등학교,경기도 파주시 파주읍 술이홀로 379,37.8313146256796,126.829901754932,031-950-9920,773명,557명,216명,http://www.pjsg.hs.kr,공업계 
발곡고등학교,경기도 의정부시 동일로454번길 150,37.7284363832575,127.067697863441,031-828-1500,755명,362명,393명,http://www.balgok.hs.kr,일반계 
영북고등학교,경기도 포천시 영북면 영북로 136,38.0860645797951,127.276270906024,031-532-6062,170명,138명,32명,http://youngbuk.hs.kr,공업계  | 상업계  | 일반계 
위례고등학교,경기도 하남시 위례순환로 323,37.4768503545371,127.150883247099,02-6966-1700,483명,221명,262명,http://wirye.hs.kr,일반계 
김포외국어고등학교,경기도 김포시 월곶면 김포대로 2537,37.7012131011638,126.567516995168,031-996-7700,499명,188명,311명,http://www.gfl.hs.kr,외국어계 
성남여자고등학교,경기도 성남시 중원구 원터로94번길 6,37.4361548788789,127.144693203148,031-750-4483,617명,0명,617명,http://seongnamgs-h.goesn.kr,일반계 
반송고등학교,경기도 화성시 동탄반석로 21,37.192768039356,127.077777841415,031-8055-3323,981명,506명,475명,http://bansong.hs.kr,일반계 
향동고등학교,경기도 고양시 덕양구 향기3로 6,37.5964579627625,126.893474905956,02-2280-5400,158명,87명,71명,http://hyangdong.hs.kr/,일반계 
평택여자고등학교,경기도 평택시 영신로 220,37.0126033288002,127.089739216438,031-690-0690,1042명,0명,1042명,https://pyeongtaek-gh-h.goept.kr,상업계  | 일반계 
성사고등학교,경기도 고양시 덕양구 호국로 869,37.6630574224417,126.8421274753,031-960-9105,711명,374명,337명,http://www.seongsa.hs.kr,일반계 
관양고등학교,경기도 안양시 동안구 일동로 115,37.4088142308233,126.960117747105,031-420-9440,927명,479명,448명,http://www.gwanyang.hs.kr,일반계 
수성고등학교,경기도 수원시 장안구 장안로90번길 39,37.2936136656286,127.002657095586,031-259-1114,899명,899명,0명,http://susung-h.goesw.kr,일반계 
위례한빛고등학교,경기도 성남시 수정구 위례동로 86,37.4672995080993,127.150006300623,031-8038-1954,795명,401명,394명,https://wiryehanbit-h.goesn.kr,일반계 
노비따스음악중고등학교,경기도 가평군 설악면 한서로210번길 325,37.6425788523177,127.521383093465,070-8953-1009,22명,0명,22명,http://www.novitas.kr,일반계 
성남외국어고등학교,경기도 성남시 분당구 대왕판교로385번길 28,37.3786053911743,127.096568971113,031-789-2300,594명,122명,472명,https://snfl-h.goesn.kr,외국어계 
마장고등학교,경기도 이천시 마장면 마도로 23,37.2581264362967,127.351288702624,031-632-2080,151명,83명,68명,http://majanghigh.goeic.kr,상업계  | 일반계 
율면고등학교,경기도 이천시 율면 고당로 48,37.087707499567,127.542256614306,031-641-0664,53명,44명,9명,http://yulmyun.goeic.kr,상업계  | 일반계 
양곡고등학교,경기도 김포시 양촌읍 양곡4로 138,37.6596394442291,126.625143691369,031-981-0138,647명,320명,327명,http://www.yanggok.hs.kr,공업계  | 상업계  | 일반계 
신봉고등학교,경기도 용인시 수지구 신봉3로 45,37.3277489684832,127.062956055271,031-8019-4909,1092명,564명,528명,http://www.shinbong.hs.kr,일반계 
저현고등학교,경기도 고양시 일산동구 위시티3로 37,37.6778068766052,126.815596898687,031-960-1802,925명,488명,437명,http://jeohyeon.hs.kr,일반계 
정발고등학교,경기도 고양시 일산동구 정발산로 185,37.663650247279,126.786137150245,031-904-2328,856명,453명,403명,http://www.jeongbal.hs.kr,일반계 
남한고등학교,경기도 하남시 신평로 25,37.5360326229314,127.202819017585,031-790-3800,648명,380명,268명,http://www.namhan.hs.kr,일반계 
수내고등학교,경기도 성남시 분당구 발이봉북로 15,37.3661148647604,127.129863931689,031-715-8276,724명,407명,317명,http://sunae-h.goesn.kr,일반계 
지평고등학교,경기도 양평군 지평면 지평로 418,37.4744740136703,127.634558913609,031-773-7842,123명,69명,54명,http://jipyeong.hs.kr,공업계  | 상업계  | 일반계 
서현고등학교부설방송통신고등학교,경기도 성남시 분당구 분당로 87,37.3822220478195,127.124059549433,031-789-5326,219명,59명,160명,http://www.seohyun.hs.kr/,일반계 
천천고등학교,경기도 수원시 장안구 정자로42번길 31,37.299408740742,126.982888390324,031-249-6768,717명,394명,323명,http://cheoncheon.hs.kr,일반계 
덕영고등학교,경기도 용인시 처인구 고림로74번길 15,37.2416000721653,127.216136810852,031-329-4300,620명,384명,236명,http://www.dukyoung.hs.kr,공업계  | 상업계 
상동고등학교부설방송통신고등학교,경기도 부천시 원미구 상이로 22,37.49062564556,126.745065881408,032-220-5009,194명,75명,119명,http://cyber.hs.kr/,일반계 
남양주공업고등학교,경기도 남양주시 화도읍 경춘로2192번길 25,37.6524889117953,127.334241974428,"031-590-3700,3800",346명,294명,52명,http://www.namyangju.hs.kr,공업계 
매탄고등학교,경기도 수원시 영통구 매탄로126번길 11,37.2626277424039,127.044777948453,031-218-3024,949명,451명,498명,http://www.maetan.hs.kr,일반계 
송현고등학교,경기도 의정부시 용민로 159,37.7439207507851,127.090831646443,031-850-8325,837명,406명,431명,http://www.songhyun.or.kr,일반계 
경기도양진중학교,경기도 안성시 공도읍 진사1길 37,36.9861175337172,127.144101604314,031-8046-7703,473명,241명,232명,http://yangjin-m.ms.kr,일반계 
태광고등학교,경기도 평택시 탄현1로 155,37.0738016605207,127.053499233675,031-646-5100,741명,363명,378명,http://www.taegwang.hs.kr,상업계  | 일반계 
봉담고등학교,경기도 화성시 봉담읍 상봉길 42,37.2178686873822,126.95389302318,031-278-3585,877명,379명,498명,http://www.bongdam.hs.kr/,일반계 
양평고등학교,경기도 양평군 양평읍 양근로 260,37.4854259853451,127.49603802779,031-772-2580,530명,225명,305명,http://yp.hs.kr,농업계  | 일반계 
사우고등학교,경기도 김포시 김포대로 824,37.6192188251713,126.723598257341,031-985-2393,1081명,569명,512명,http://www.sawoo.hs.kr,일반계 
이매고등학교,경기도 성남시 분당구 탄천로 1,37.3924517885291,127.120949209761,031-704-4042,769명,441명,328명,http://imae-h.goesn.kr,일반계 
범박고등학교,경기도 부천시 소사구 범박로 27-1,37.4676828113071,126.8117302081,032-349-4623,677명,367명,310명,http://www.bbh.hs.kr,일반계 
은혜고등학교,경기도 평택시 장안웃길 66,37.0665412807968,127.081646789078,031-615-2500,724명,357명,367명,http://eunhye.hs.kr,상업계  | 일반계 
명문고등학교,경기도 광명시 광명로812번길 16,37.4705716628221,126.849888472353,02-2680-3800,866명,448명,418명,http://www.mm.hs.kr,일반계 
장호원고등학교,경기도 이천시 장호원읍 샘재로 27-37,37.1270819406379,127.617615691344,031-641-2028,364명,172명,192명,https://janggo.goeic.kr/,상업계  | 일반계 
와부고등학교,경기도 남양주시 와부읍 수레로 127-20,37.594819625106,127.223101735597,031-579-6618,736명,325명,411명,http://wabu.hs.kr,일반계 
수원여자고등학교부설방송통신고등학교,경기도 수원시 팔달구 고등로59번길 72,37.2768359099875,127.004355045767,031-245-1503,288명,0명,288명,http://suwon-g.hs.kr/,일반계 
새솔고등학교,경기도 화성시 큰나래3길 25,37.2737260426517,126.829535858358,031-659-8800,404명,203명,201명,http://saesol.hs.kr/,일반계 
금촌고등학교,경기도 파주시 쇠재1길 18,37.7501967058039,126.778764724155,031-946-5672,925명,432명,493명,http://www.geumchon.hs.kr,일반계 
송우고등학교,경기도 포천시 소흘읍 태봉로 125,37.8294092212581,127.138437704526,031-541-6821,761명,339명,422명,http://songwoo.hs.kr/,일반계 
광덕고등학교,경기도 안산시 상록구 순환로 532,37.3401337647294,126.845987037976,031-8040-4600,691명,352명,339명,http://www.kwangdeok.hs.kr/,일반계 
세교고등학교,경기도 오산시 수청로 112,37.1779835149585,127.053620243262,031-8077-8100,900명,404명,496명,http://segyo.hs.kr/,일반계 
교하고등학교,경기도 파주시 책향기로 180,37.7226155671809,126.721703650352,031-949-8003,990명,479명,511명,http://www.gyoha.hs.kr,일반계 
중앙예닮학교,경기도 용인시 수지구 포은대로 91-19,37.3024472471441,127.070551990278,031-217-1401,232명,123명,109명,http://ya.or.kr,일반계 
의정부고등학교,경기도 의정부시 녹양로 29,37.7549157479595,127.03127458002,031-874-2996,727명,727명,0명,http://www.uigo.hs.kr,일반계 
무원고등학교,경기도 고양시 덕양구 화신로 65,37.6190799431314,126.838125360713,031-930-0794,767명,399명,368명,http://moowon.hs.kr,일반계 
백운고등학교,경기도 의왕시 내손순환로 136,37.3878883943889,126.986694291555,031-423-2333,810명,417명,393명,http://paekun.hs.kr,일반계 
창의고등학교,경기도 화성시 동탄신리천로1길 66,37.1801476966193,127.120795251193,031-323-9252,1170명,583명,587명,http://www.creativity.hs.kr/,일반계 
경기도인창고등학교,경기도 구리시 왕숙천로 339,37.605469197692,127.146471249409,031-551-9305,622명,360명,262명,http://www.inchang.hs.kr,일반계 
동국대학교사범대학부속영석고등학교,경기도 의정부시 시민로 363,37.7358713333453,127.074910358813,031-846-4560,752명,752명,0명,http://www.youngseok.hs.kr,일반계 
소래고등학교,경기도 시흥시 수인로3287번길 26,37.4378261328413,126.794878139967,031-313-6182,944명,466명,478명,http://www.sorae.hs.kr,상업계  | 일반계 
안양고등학교,경기도 안양시 만안구 삼봉로 46,37.4004889815641,126.901359985879,031-443-2142,876명,453명,423명,http://www.anyang.hs.kr,일반계 
청학고등학교,경기도 남양주시 별내면 청학로68번길 47,37.711839285365,127.11956783907,031-821-3235,558명,273명,285명,http://www.cheonghak.hs.kr,일반계 
하성고등학교,경기도 김포시 하성면 애기봉로806번길 30,37.7180063747834,126.628433284102,031-988-7261,226명,113명,113명,http://www.haseong.hs.kr,상업계  | 일반계 
우성고등학교,경기도 의왕시 오전로 37,37.3492861561957,126.98065085099,031-3619-200,816명,416명,400명,http://woosung.hs.kr,일반계 
포곡고등학교,경기도 용인시 처인구 포곡읍 포곡로210번길 26,37.2725291669095,127.227655727181,031-329-3710,873명,403명,470명,http://www.pogok.hs.kr,일반계 
상우고등학교,경기도 의정부시 범골로 79,37.7313192433629,127.037296737613,031-850-1300,771명,374명,397명,http://www.sangwoo.hs.kr,일반계 
평택마이스터고등학교,경기도 평택시 중앙1로 61,36.9990851692595,127.091105039806,031-659-1207,465명,425명,40명,https://ptmt-h.goept.kr/ptmt-h/main.do,공업계 
나루고등학교,경기도 화성시 금반2길 13,37.1865640114256,127.071939761815,031-8055-6700,748명,346명,402명,http://www.naru.hs.kr,일반계 
야탑고등학교,경기도 성남시 분당구 판교로 738,37.4037683255112,127.153564494099,(031)697-0100,736명,413명,323명,https://yatap-h.goesn.kr/,일반계 
별내고등학교,경기도 남양주시 별내5로 36,37.651580422458,127.11707752093,031-570-0700,769명,409명,360명,http://www.byeollae.hs.kr,일반계 
일산대진고등학교,경기도 고양시 일산서구 대산로 246,37.6804713913201,126.751596656166,031-911-2477,976명,524명,452명,http://isdj.hs.kr,일반계 
원미고등학교,경기도 부천시 원미구 옥산로 48,37.49820989913,126.78273301857,032-722-6200,695명,382명,313명,http://www.wonmihigh.hs.kr,일반계 
장곡고등학교,경기도 시흥시 장곡로70번길 8,37.3800412358371,126.782344990345,031-362-8400,669명,324명,345명,http://www.janggok.hs.kr,일반계 
효명고등학교,경기도 평택시 송탄로 51,37.0501393042999,127.055080651984,031-664-1022,796명,436명,360명,https://hmh-h.goept.kr/,공업계  | 일반계 
용인삼계고등학교,경기도 용인시 처인구 포곡읍 백옥대로1898번길 34-42,37.2946595074512,127.24060991311,031-329-1000,658명,310명,348명,http://yisamgye.hs.kr,일반계 
호매실고등학교,경기도 수원시 권선구 칠보로 142-1,37.2649054743471,126.955427801068,031-547-6900,623명,346명,277명,https://homaesil-h.goesw.kr,일반계 
처인고등학교,경기도 용인시 처인구 남사읍 한숲로 32,37.1512627042194,127.170320790079,031-724-2100,310명,145명,165명,http://cheoin.hs.kr/,일반계 
분당대진고등학교,경기도 성남시 분당구 분당로 271,37.36941233406,127.138147511331,031-706-8574,927명,518명,409명,https://bdj-h.goesn.kr/,일반계 
김포제일고등학교,경기도 김포시 김포한강11로 242,37.6530840934707,126.67737392261,031-950-6511,1136명,547명,589명,http://gimpojeil.hs.kr,일반계 
복정고등학교,경기도 성남시 수정구 복정안골로 35,37.4615283263321,127.137279398333,031-720-1707,504명,260명,244명,https://bokjeong-h.goesn.kr,일반계 
양지고등학교,경기도 안산시 단원구 화정천동로 50,37.3091875469614,126.822084716848,031-439-8301,739명,371명,368명,http://www.yj.hs.kr,일반계 
이천양정여자고등학교,경기도 이천시 영창로 119,37.2846441985699,127.436821002045,031-633-7803,751명,0명,751명,http://www.icyj.hs.kr,상업계  | 일반계 
행신고등학교,경기도 고양시 덕양구 소만로 36,37.6164053212683,126.842624064525,031-974-6292,770명,406명,364명,http://www.haengshin.hs.kr/,일반계 
태전고등학교,경기도 광주시 태전동로 38,37.3858908899415,127.233141089342,031-5182-0700,901명,428명,473명,http://taejeon.hs.kr/,일반계 
안산강서고등학교,경기도 안산시 단원구 삼일로 367,37.334793619354,126.817938584324,031-485-9742,825명,428명,397명,http://www.asgs.hs.kr,일반계 
유신고등학교,경기도 수원시 팔달구 월드컵로 216,37.2824315240895,127.041348256923,031-547-4500,954명,954명,0명,http://www.yushin.or.kr,일반계 
목감고등학교,경기도 시흥시 목감둘레로 150,37.3722233929532,126.857183427994,031-460-8900,482명,278명,204명,http://www.mokgam.hs.kr,일반계 
한국관광고등학교,경기도 평택시 고덕면 고덕북로 185,37.071831840157,127.022061475235,031-662-5111,208명,56명,152명,https://tourism-h.goept.kr,가사계  | 상업계  | 특성화 
경기관광고등학교,경기도 여주시 대신면 여양로 1416,37.3754831273303,127.589397386358,031-882-9196,244명,136명,108명,http://gtour-h.goeyj.kr,상업계  | 일반계 
고양일고등학교,경기도 고양시 덕양구 읍내로 13,37.6997243989199,126.901335530973,031-969-6756,523명,274명,249명,http://goyangil.hs.kr/,일반계 
오산정보고등학교,경기도 오산시 청학로5번길 20,37.1538900835236,127.059967037194,031-370-5600,630명,388명,242명,http://www.osani.hs.kr,상업계 
송산고등학교,경기도 화성시 송산면 송산포도로 102-21,37.2164646047035,126.738264915816,031-357-1117,358명,193명,165명,http://www.songsan.hs.kr,상업계  | 일반계 
상현고등학교,경기도 용인시 수지구 법조로 222,37.2991129519629,127.074394274472,031-547-7341,945명,492명,453명,http://www.sanghyun.hs.kr/,일반계 
숙지고등학교,경기도 수원시 팔달구 수성로182번길 100,37.2829678262572,126.993296176598,031-8065-3025,823명,453명,370명,http://sukji-h.goesw.kr/,일반계 
과천외국어고등학교,경기도 과천시 희망길 36,37.4326435517116,126.988107313228,02-504-3300,635명,183명,452명,http://www.gcfl.or.kr,외국어계 
남양고등학교,경기도 화성시 남양읍 시청로45번길 23,37.2079709009554,126.823406441819,031-8077-1790,555명,277명,278명,http://namyang.hs.kr/,상업계  | 일반계 
세원고등학교,경기도 고양시 일산동구 숲속마을로 202,37.6714693403626,126.803347635738,031-870-8300,453명,243명,210명,http://www.sewon.hs.kr,일반계 
의정부공업고등학교,경기도 의정부시 가능로 57,37.7484462322208,127.037543157632,031-820-9600,660명,577명,83명,http://www.ujbtech.hs.kr,공업계 공업계 
다산고등학교,경기도 이천시 경충대로 2856,37.2910405876116,127.428896724339,031-645-7120,589명,317명,272명,https://dasan.goeic.kr/,가사계  | 공업계  | 일반계 
파주고등학교,경기도 파주시 문산읍 독산로31번길 39,37.8592228203021,126.780665493309,031-952-2648,310명,161명,149명,http://www.paju-coh.hs.kr,공업계  | 일반계 
서천고등학교,경기도 용인시 기흥구 서천서로 126,37.2341055198717,127.069475951684,031-546-7200,791명,410명,381명,http://www.seocheongo.hs.kr,일반계 
경기모바일과학고등학교,경기도 안산시 상록구 남산평길 35,37.3055682524576,126.898147098198,031-400-6780,398명,244명,154명,http://www.gms.hs.kr/,공업계  | 상업계 
일죽고등학교,경기도 안성시 서동대로 7446,37.0914702841877,127.473371458841,031-8046-6250,100명,54명,46명,http://www.iljuk.hs.kr,농업계  | 일반계 
백마고등학교,경기도 고양시 일산동구 백석로 155,37.6519823295188,126.794012098875,031-906-0865,875명,453명,422명,http://baekma.hs.kr,일반계 
청덕고등학교,경기도 용인시 기흥구 구성1로 21,37.2923336778719,127.143917028382,031-546-2500,897명,467명,430명,http://www.cheongdeok.hs.kr,일반계 
시온고등학교,경기도 부천시 은성로 172-20,37.4714865852548,126.805106092247,032-341-9191,839명,461명,378명,http://www.zion.hs.kr,일반계 
명현학교,경기도 고양시 덕양구 세솔로 138,37.6567583683057,126.884294217344,02-381-8029,140명,0명,0명,http://www.myhy.sc.kr,일반계 
현화고등학교,경기도 평택시 안중읍 안현로서8길 65,36.9788021503533,126.917287521434,031-612-5603,818명,341명,477명,http://hyeonhwa-h.goept.kr,일반계 
광휘고등학교,경기도 광명시 서원로 41,37.4290157038939,126.881826274255,02-6310-9190,757명,399명,358명,http://www.gwanghwi.hs.kr,일반계 
덕산고등학교,경기도 부천시 오정로266번길 69,37.5307917903283,126.789920196298,070-7094-1508,580명,311명,269명,http://www.duksan-h.hs.kr,일반계 
장기고등학교,경기도 김포시 김포한강2로 131,37.6401417391789,126.668228252468,031-984-1851,988명,467명,521명,http://janggi.hs.kr,일반계 
경기경영고등학교,경기도 부천시 심곡로 100,37.4750206965388,126.773051147432,032-652-1701,586명,273명,313명,http://gm.hs.kr,가사계  | 공업계  | 상업계 
한국애니메이션고등학교,경기도 하남시 검단산로 223,37.5349620682026,127.227302576715,031-790-9031,294명,82명,212명,http://www.anigo.or.kr,공업계  | 특성화 
경기스마트고등학교,경기도 시흥시 정왕천로 404,37.3432672148453,126.752629411521,070-8708-2117,463명,315명,148명,http://www.smart.hs.kr,공업계 
권선고등학교,경기도 수원시 권선구 세권로 276,37.2527819363773,127.033365065763,031-230-0141,984명,478명,506명,http://www.kwonsun.hs.kr,일반계 
군자디지털과학고등학교,경기도 시흥시 군자로487번길 54,37.3505377915836,126.786042771037,031-489-8114,379명,262명,117명,http://www.gunja.hs.kr,공업계 
부천상록학교,경기도 부천시 길주로 574,37.5061075191878,126.805835864598,032-678-2811,266명,0명,0명,http://www.sangrok.sc.kr,일반계 
안양여자고등학교,경기도 안양시 만안구 안양로 357,37.403532992508,126.916322264164,031-469-2017,574명,0명,574명,http://anyang-gh.hs.kr,일반계 
풍동고등학교,경기도 고양시 일산동구 숲속마을로 119,37.6718434999289,126.795081300476,031-926-6200,763명,407명,356명,http://www.pungdong.hs.kr/,일반계 
라온고등학교,경기도 평택시 경기대로1376번길 38-6,37.06940562121,127.066952239017,031-615-3400,480명,248명,232명,http://raon-h.goept.kr,일반계 
동남고등학교,경기도 포천시 소흘읍 솔모루로3번길 69,37.8269529777512,127.13562343632,031-540-5520,699명,408명,291명,http://dongnam.hs.kr,일반계 
선부고등학교,경기도 안산시 단원구 지곡로 138,37.3413881462584,126.793923396332,031-495-2444,688명,354명,334명,http://www.seonbu.hs.kr,일반계 
능동고등학교,경기도 화성시 동탄원천로 315-26,37.2139089059219,127.057505766668,031-8015-3081,797명,389명,408명,http://www.neungdong.hs.kr,일반계 
백신고등학교,경기도 고양시 일산동구 백석로 8,37.6424890685772,126.782286198995,031-903-4903,841명,442명,399명,http://www.baekshin.hs.kr,일반계 
용인고등학교,경기도 용인시 처인구 금학로253번길 20-21,37.2405707192481,127.193087259605,031-330-8309,1092명,495명,597명,http://www.yongin.hs.kr,일반계 
진성고등학교,경기도 광명시 철망산로 84,37.4695027921566,126.87676140721,02-803-2490,653명,358명,295명,http://www.jinsung.or.kr,일반계 
두레자연고등학교,경기도 화성시 우정읍 두레길 42,37.0593852706188,126.795749166402,031-358-8183,113명,74명,39명,http://www.dure.hs.kr,대안 
설악고등학교,경기도 가평군 설악면 한양부로 21-1,37.6819366954485,127.493949988402,031-584-7780,160명,71명,89명,http://www.seorak.hs.kr,일반계 
충현고등학교,경기도 광명시 오리로348번길 62,37.432959959408,126.884528071988,02-6922-6100,760명,397명,363명,http://www.chunghyun.hs.kr,일반계 
